[
    {
        "name": "The Louvre Museum",
        "city": "Paris",
        "country": "France",
        "address": "Rue de Rivoli, 75001 Paris, France",
        "latitude": "48.8606",
        "longitude": "2.3376",
        "hours": "9 AM \u2013 6 PM (Closed on Tuesday)",
        "website": "https://www.louvre.fr/en",
        "description": "The Louvre is the world's largest art museum and a historic monument in Paris, France."
    },
    {
        "name": "The British Museum",
        "city": "London",
        "country": "United Kingdom",
        "address": "Great Russell St, London WC1B 3DG, UK",
        "latitude": "51.5194",
        "longitude": "-0.1270",
        "hours": "10 AM \u2013 5 PM",
        "website": "https://www.britishmuseum.org/",
        "description": "The British Museum is dedicated to human history, art, and culture."
    },
    {
        "name": "The Metropolitan Museum of Art",
        "city": "New York",
        "country": "USA",
        "address": "1000 5th Ave, New York, NY 10028",
        "latitude": "40.7794",
        "longitude": "-73.9632",
        "hours": "10 AM \u2013 5 PM",
        "website": "https://www.metmuseum.org/",
        "description": "The Met is one of the world's largest and finest art museums, located in New York City."
    }
]